id,name,status,health,stage,feedstock,targetTPH,location_name,state,lat,lon,startDate,targetFeedDate,budget_estimated_M,budget_spent_M,budget_committed_M,budgetCat_engineering,budgetCat_permits,budgetCat_land,budgetCat_equipment,teamLead,stageProgress_concept,stageProgress_preFeed,stageProgress_feed,stageProgress_epc,stageProgress_construction,stageProgress_commissioning,notes
dev-hartford,Hartford Energy Campus,active,green,pre-feed,Mixed,40,Hartford CT,CT,41.76,-72.68,2025-06-01,2029-Q1,340,12.4,28.0,8.2,1.4,2.8,0,emp-001,100,45,0,0,0,0,JV structure under negotiation. WSP Global engaged for Pre-FEED.
dev-savannah,Savannah Tire Facility,active,green,concept,Tire Crumb,8,Savannah GA,GA,32.08,-81.09,2026-01-15,2029-Q3,75,0.8,2.0,0.5,0.1,0.2,0,emp-006,60,0,0,0,0,0,Early stage — evaluating 3 potential sites near port.
dev-alberta,Alberta Tire Processing,active,yellow,pre-feed,Tire Crumb,4,Calgary AB,AB,51.05,-114.07,2025-09-01,2028-Q4,68,3.2,8.5,2.0,0.4,0.8,0,emp-003,100,30,0,0,0,0,Regulatory framework review in progress.
dev-india-gujarat,Gujarat Coal Facility,active,green,concept,Coal,40,Ahmedabad Gujarat,GJ,23.02,72.57,2026-02-01,2030-Q2,450,1.2,4.0,0.8,0.2,0.2,0,emp-001,40,0,0,0,0,0,Tata Recycling LOI signed.
dev-uzbek,Tashkent Coal Facility,on-hold,yellow,concept,Coal,20,Tashkent Uzbekistan,UZ,41.30,69.28,2026-01-01,2031-Q1,340,0.4,1.0,0.3,0,0.1,0,emp-006,25,0,0,0,0,0,On hold pending geopolitical risk assessment.